[
    {
      "id": 1,
      "nombre": "Capital",
      "region": "Centro",
      "superficie_km2": 54,
      "poblacion": 115041,
      "capital": "Ciudad de Mendoza",
      "intendente": "Ulpiano Suarez",
      "coordenadas": { "lat": -32.8908, "lng": -68.8272 }
    },
    {
      "id": 2,
      "nombre": "Godoy Cruz",
      "region": "Centro",
      "superficie_km2": 54,
      "poblacion": 191299,
      "capital": "Godoy Cruz",
      "coordenadas": { "lat": -32.9392, "lng": -68.8575 }
    },
    {
      "id": 3,
      "nombre": "Guaymallén",
      "region": "Centro",
      "superficie_km2": 164,
      "poblacion": 283803,
      "capital": "Villa Nueva",
      "coordenadas": { "lat": -32.8833, "lng": -68.8167 }
    },
    {
      "id": 4,
      "nombre": "Las Heras",
      "region": "Centro",
      "superficie_km2": 8920,
      "poblacion": 204913,
      "capital": "Las Heras",
      "coordenadas": { "lat": -32.8333, "lng": -68.8333 }
    },
    {
      "id": 5,
      "nombre": "Luján de Cuyo",
      "region": "Centro",
      "superficie_km2": 4277,
      "poblacion": 121000,
      "capital": "Luján de Cuyo",
      "coordenadas": { "lat": -33.0417, "lng": -68.9333 }
    },
    {
      "id": 6,
      "nombre": "Maipú",
      "region": "Centro",
      "superficie_km2": 617,
      "poblacion": 178526,
      "capital": "Maipú",
      "coordenadas": { "lat": -32.9667, "lng": -68.7667 }
    },
    {
      "id": 7,
      "nombre": "San Martín",
      "region": "Este",
      "superficie_km2": 1504,
      "poblacion": 121198,
      "capital": "San Martín",
      "coordenadas": { "lat": -33.0806, "lng": -68.4694 }
    },
    {
      "id": 8,
      "nombre": "Junín",
      "region": "Este",
      "superficie_km2": 263,
      "poblacion": 42651,
      "capital": "Junín",
      "coordenadas": { "lat": -33.1167, "lng": -68.4667 }
    },
    {
      "id": 9,
      "nombre": "Rivadavia",
      "region": "Este",
      "superficie_km2": 2063,
      "poblacion": 59898,
      "capital": "Rivadavia",
      "coordenadas": { "lat": -33.2, "lng": -68.4833 }
    },
    {
      "id": 10,
      "nombre": "Santa Rosa",
      "region": "Este",
      "superficie_km2": 8505,
      "poblacion": 16500,
      "capital": "Santa Rosa",
      "coordenadas": { "lat": -33.3333, "lng": -68.3333 }
    },
    {
      "id": 11,
      "nombre": "La Paz",
      "region": "Este",
      "superficie_km2": 7178,
      "poblacion": 9800,
      "capital": "La Paz",
      "coordenadas": { "lat": -33.4667, "lng": -67.5333 }
    },
    {
      "id": 12,
      "nombre": "San Rafael",
      "region": "Sur",
      "superficie_km2": 31951,
      "poblacion": 190750,
      "capital": "San Rafael",
      "coordenadas": { "lat": -34.6179, "lng": -68.3301 }
    },
    {
      "id": 13,
      "nombre": "General Alvear",
      "region": "Sur",
      "superficie_km2": 14881,
      "poblacion": 48200,
      "capital": "General Alvear",
      "coordenadas": { "lat": -34.9667, "lng": -67.6833 }
    },
    {
      "id": 14,
      "nombre": "Malargüe",
      "region": "Sur",
      "superficie_km2": 41244,
      "poblacion": 30000,
      "capital": "Malargüe",
      "coordenadas": { "lat": -35.475, "lng": -69.5833 }
    },
    {
      "id": 15,
      "nombre": "Tunuyán",
      "region": "Valle de Uco",
      "superficie_km2": 3317,
      "poblacion": 48278,
      "capital": "Tunuyán",
      "coordenadas": { "lat": -33.5667, "lng": -69.0167 }
    },
    {
      "id": 16,
      "nombre": "San Carlos",
      "region": "Valle de Uco",
      "superficie_km2": 8578,
      "poblacion": 33140,
      "capital": "San Carlos",
      "coordenadas": { "lat": -33.7667, "lng": -69.0167 }
    },
    {
      "id": 17,
      "nombre": "Tupungato",
      "region": "Valle de Uco",
      "superficie_km2": 2185,
      "poblacion": 33600,
      "capital": "Tupungato",
      "coordenadas": { "lat": -33.375, "lng": -69.1667 }
    },
    {
      "id": 18,
      "nombre": "Lavalle",
      "region": "Centro - Norte",
      "superficie_km2": 10200,
      "poblacion": 39500,
      "capital": "Villa Tulumaya",
      "coordenadas": { "lat": -32.5, "lng": -68.5 }
    }
  ]
  